{
"type": "FeatureCollection",
"features": [
  {"type": "Feature", "geometry": {"type": "Point", "coordinates": [4.38716070063694,44.89120382165605]}, "properties": {"id": 0, "department_code": "07", "zip_code": "07160", "name": "Accons"}},{"type": "Feature", "geometry": {"type": "Point", "coordinates": [4.33298598360656,44.6004718852459]}, "properties": {"id": 1, "department_code": "07", "zip_code": "07200", "name": "Ailhon"}},{"type": "Feature", "geometry": {"type": "Point", "coordinates": [4.33130009708738,44.71891980582524]}, "properties": {"id": 2, "department_code": "07", "zip_code": "07530", "name": "Aizac"}},{"type": "Feature", "geometry": {"type": "Point", "coordinates": [4.48732317460317,44.75942698412697]}, "properties": {"id": 3, "department_code": "07", "zip_code": "07000", "name": "Ajoux"}},{"type": "Feature", "geometry": {"type": "Point", "coordinates": [4.59547974452555,44.55347145985403]}, "properties": {"id": 4, "department_code": "07", "zip_code": "07400", "name": "Alba-la-Romaine"}},{"type": "Feature", "geometry": {"type": "Point", "coordinates": [4.41797432098765,44.81930845679015]}, "properties": {"id": 5, "department_code": "07", "zip_code": "07190", "name": "Albon-d'Ardèche"}},{"type": "Feature", "geometry": {"type": "Point", "coordinates": [4.73963446721312,44.93935930327866]}, "properties": {"id": 6, "department_code": "07", "zip_code": "07440", "name": "Alboussière"}},{"type": "Feature", "geometry": {"type": "Point", "coordinates": [4.62057368055556,44.705058125]}, "properties": {"id": 7, "department_code": "07", "zip_code": "07210", "name": "Alissas"}},{"type": "Feature", "geometry": {"type": "Point", "coordinates": [4.79337940476191,45.22684880952381]}, "properties": {"id": 8, "department_code": "07", "zip_code": "07340", "name": "Andance"}},{"type": "Feature", "geometry": {"type": "Point", "coordinates": [4.65341196141479,45.2443633762058]}, "properties": {"id": 9, "department_code": "07", "zip_code": "07100", "name": "Annonay"}},{"type": "Feature", "geometry": {"type": "Point", "coordinates": [4.3569392,44.73457017777783]}, "properties": {"id": 10, "department_code": "07", "zip_code": "07530", "name": "Antraigues-sur-Volane"}},{"type": "Feature", "geometry": {"type": "Point", "coordinates": [4.31649391791045,44.89863667910448]}, "properties": {"id": 11, "department_code": "07", "zip_code": "07310", "name": "Arcens"}},{"type": "Feature", "geometry": {"type": "Point", "coordinates": [4.74414788461538,45.19199955128204]}, "properties": {"id": 12, "department_code": "07", "zip_code": "07290", "name": "Ardoix"}},{"type": "Feature", "geometry": {"type": "Point", "coordinates": [4.63079497630332,45.039407535545]}, "properties": {"id": 13, "department_code": "07", "zip_code": "07410", "name": "Arlebosc"}},{"type": "Feature", "geometry": {"type": "Point", "coordinates": [4.80176104477612,45.14507432835821]}, "properties": {"id": 14, "department_code": "07", "zip_code": "07370", "name": "Arras-sur-Rhône"}},{"type": "Feature", "geometry": {"type": "Point", "coordinates": [4.35125145299145,44.69546068376066]}, "properties": {"id": 15, "department_code": "07", "zip_code": "07600", "name": "Asperjoc"}},{"type": "Feature", "geometry": {"type": "Point", "coordinates": [4.18849601265823,44.42614841772151]}, "properties": {"id": 16, "department_code": "07", "zip_code": "07140", "name": "Les Assions"}},{"type": "Feature", "geometry": {"type": "Point", "coordinates": [4.02491471365639,44.69162814977972]}, "properties": {"id": 17, "department_code": "07", "zip_code": "07330", "name": "Astet"}},{"type": "Feature", "geometry": {"type": "Point", "coordinates": [4.39175957055215,44.61327699386505]}, "properties": {"id": 18, "department_code": "07", "zip_code": "07200", "name": "Aubenas"}},{"type": "Feature", "geometry": {"type": "Point", "coordinates": [4.63317902255639,44.58199571428571]}, "properties": {"id": 19, "department_code": "07", "zip_code": "07400", "name": "Aubignas"}},{"type": "Feature", "geometry": {"type": "Point", "coordinates": [4.74140532258064,44.70561870967743]}, "properties": {"id": 20, "department_code": "07", "zip_code": "07210", "name": "Baix"}},{"type": "Feature", "geometry": {"type": "Point", "coordinates": [4.3794096969697,44.50245734848486]}, "properties": {"id": 21, "department_code": "07", "zip_code": "07120", "name": "Balazuc"}},{"type": "Feature", "geometry": {"type": "Point", "coordinates": [4.14822478599222,44.36016381322956]}, "properties": {"id": 22, "department_code": "07", "zip_code": "07460", "name": "Banne"}},{"type": "Feature", "geometry": {"type": "Point", "coordinates": [4.15964210191083,44.66808050955417]}, "properties": {"id": 23, "department_code": "07", "zip_code": "07330", "name": "Barnas"}},{"type": "Feature", "geometry": {"type": "Point", "coordinates": [4.1322624497991995,44.8578591967872]}, "properties": {"id": 24, "department_code": "07", "zip_code": "07630", "name": "Le Béage"}},{"type": "Feature", "geometry": {"type": "Point", "coordinates": [4.79134162162162,44.83393513513513]}, "properties": {"id": 25, "department_code": "07", "zip_code": "07800", "name": "Beauchastel"}},{"type": "Feature", "geometry": {"type": "Point", "coordinates": [4.25411540816326,44.35740306122448]}, "properties": {"id": 26, "department_code": "07", "zip_code": "07460", "name": "Beaulieu"}},{"type": "Feature", "geometry": {"type": "Point", "coordinates": [4.17150531914894,44.53813835106383]}, "properties": {"id": 27, "department_code": "07", "zip_code": "07110", "name": "Beaumont"}},{"type": "Feature", "geometry": {"type": "Point", "coordinates": [4.5102441964285696,44.86745946428572]}, "properties": {"id": 28, "department_code": "07", "zip_code": "07190", "name": "Beauvène"}},{"type": "Feature", "geometry": {"type": "Point", "coordinates": [4.20915731578947,44.38418994736841]}, "properties": {"id": 29, "department_code": "07", "zip_code": "07460", "name": "Berrias-et-Casteljau"}},{"type": "Feature", "geometry": {"type": "Point", "coordinates": [4.57119273743017,44.65107608938548]}, "properties": {"id": 30, "department_code": "07", "zip_code": "07580", "name": "Berzème"}},{"type": "Feature", "geometry": {"type": "Point", "coordinates": [4.2967422368421,44.33933947368418]}, "properties": {"id": 31, "department_code": "07", "zip_code": "07150", "name": "Bessas"}},{"type": "Feature", "geometry": {"type": "Point", "coordinates": [4.54360829268292,44.34431691056912]}, "properties": {"id": 32, "department_code": "07", "zip_code": "07700", "name": "Bidon"}},{"type": "Feature", "geometry": {"type": "Point", "coordinates": [4.6933960701754405,44.91985505263158]}, "properties": {"id": 33, "department_code": "07", "zip_code": "07440", "name": "Boffres"}},{"type": "Feature", "geometry": {"type": "Point", "coordinates": [4.7699635443038,45.28334493670885]}, "properties": {"id": 34, "department_code": "07", "zip_code": "07340", "name": "Bogy"}},{"type": "Feature", "geometry": {"type": "Point", "coordinates": [4.24444723502304,44.89718894009217]}, "properties": {"id": 35, "department_code": "07", "zip_code": "07310", "name": "Borée"}},{"type": "Feature", "geometry": {"type": "Point", "coordinates": [4.03614975903614,44.61317381526102]}, "properties": {"id": 36, "department_code": "07", "zip_code": "07590", "name": "Borne"}},{"type": "Feature", "geometry": {"type": "Point", "coordinates": [4.65013092715231,45.05554264900664]}, "properties": {"id": 37, "department_code": "07", "zip_code": "07410", "name": "Bozas"}},{"type": "Feature", "geometry": {"type": "Point", "coordinates": [4.6857146534653396,45.02705277227719]}, "properties": {"id": 38, "department_code": "07", "zip_code": "07270", "name": "Boucieu-le-Roi"}},{"type": "Feature", "geometry": {"type": "Point", "coordinates": [4.64933867924528,45.26756295597485]}, "properties": {"id": 39, "department_code": "07", "zip_code": "07100", "name": "Boulieu-lès-Annonay"}},{"type": "Feature", "geometry": {"type": "Point", "coordinates": [4.6127656779661,44.37930466101696]}, "properties": {"id": 40, "department_code": "07", "zip_code": "07700", "name": "Bourg-Saint-Andéol"}},{"type": "Feature", "geometry": {"type": "Point", "coordinates": [4.6803664150943405,45.33048943396226]}, "properties": {"id": 41, "department_code": "07", "zip_code": "07340", "name": "Brossainc"}},{"type": "Feature", "geometry": {"type": "Point", "coordinates": [4.24078653179191,44.74723826589597]}, "properties": {"id": 42, "department_code": "07", "zip_code": "07450", "name": "Burzet"}},{"type": "Feature", "geometry": {"type": "Point", "coordinates": [3.90219301470588,44.67468823529413]}, "properties": {"id": 43, "department_code": "07", "zip_code": "07590", "name": "Cellier-du-Luc"}},{"type": "Feature", "geometry": {"type": "Point", "coordinates": [4.5601975,44.87816970000001]}, "properties": {"id": 44, "department_code": "07", "zip_code": "07240", "name": "Chalencon"}},{"type": "Feature", "geometry": {"type": "Point", "coordinates": [4.29989571428572,44.83310791666666]}, "properties": {"id": 45, "department_code": "07", "zip_code": "07160", "name": "Le Chambon"}},{"type": "Feature", "geometry": {"type": "Point", "coordinates": [4.13070691358025,44.42769320987654]}, "properties": {"id": 46, "department_code": "07", "zip_code": "07140", "name": "Chambonas"}},{"type": "Feature", "geometry": {"type": "Point", "coordinates": [4.79600081081081,45.27819891891893]}, "properties": {"id": 47, "department_code": "07", "zip_code": "07340", "name": "Champagne"}},{"type": "Feature", "geometry": {"type": "Point", "coordinates": [4.75209389423077,44.95645206730769]}, "properties": {"id": 48, "department_code": "07", "zip_code": "07440", "name": "Champis"}},{"type": "Feature", "geometry": {"type": "Point", "coordinates": [4.24744185185185,44.41748972222223]}, "properties": {"id": 49, "department_code": "07", "zip_code": "07230", "name": "Chandolas"}},{"type": "Feature", "geometry": {"type": "Point", "coordinates": [4.31089962616822,44.93130046728971]}, "properties": {"id": 50, "department_code": "07", "zip_code": "07310", "name": "Chanéac"}},{"type": "Feature", "geometry": {"type": "Point", "coordinates": [4.8342317999999995,44.86543300000002]}, "properties": {"id": 51, "department_code": "07", "zip_code": "07800", "name": "Charmes-sur-Rhône"}},{"type": "Feature", "geometry": {"type": "Point", "coordinates": [4.73065078947368,45.3453748245614]}, "properties": {"id": 52, "department_code": "07", "zip_code": "07340", "name": "Charnas"}},{"type": "Feature", "geometry": {"type": "Point", "coordinates": [4.29424138297872,44.56498117021273]}, "properties": {"id": 53, "department_code": "07", "zip_code": "07110", "name": "Chassiers"}},{"type": "Feature", "geometry": {"type": "Point", "coordinates": [4.8329708823529405,44.98539102941177]}, "properties": {"id": 54, "department_code": "07", "zip_code": "07130", "name": "Châteaubourg"}},{"type": "Feature", "geometry": {"type": "Point", "coordinates": [4.64643029850746,44.92134104477612]}, "properties": {"id": 55, "department_code": "07", "zip_code": "07240", "name": "Châteauneuf-de-Vernoux"}},{"type": "Feature", "geometry": {"type": "Point", "coordinates": [4.34099854545455,44.4925990909091]}, "properties": {"id": 56, "department_code": "07", "zip_code": "07120", "name": "Chauzon"}},{"type": "Feature", "geometry": {"type": "Point", "coordinates": [4.30328,44.59485194444444]}, "properties": {"id": 57, "department_code": "07", "zip_code": "07110", "name": "Chazeaux"}},{"type": "Feature", "geometry": {"type": "Point", "coordinates": [4.7439159047619,45.13041304761902]}, "properties": {"id": 58, "department_code": "07", "zip_code": "07300", "name": "Cheminas"}},{"type": "Feature", "geometry": {"type": "Point", "coordinates": [4.42181730263158,44.91144197368421]}, "properties": {"id": 59, "department_code": "07", "zip_code": "07160", "name": "Le Cheylard"}},{"type": "Feature", "geometry": {"type": "Point", "coordinates": [4.29331018691589,44.68793971962616]}, "properties": {"id": 60, "department_code": "07", "zip_code": "07380", "name": "Chirols"}},{"type": "Feature", "geometry": {"type": "Point", "coordinates": [4.66854012820513,44.7068773076923]}, "properties": {"id": 61, "department_code": "07", "zip_code": "07210", "name": "Chomérac"}},{"type": "Feature", "geometry": {"type": "Point", "coordinates": [4.74203109090909,45.2638270909091]}, "properties": {"id": 62, "department_code": "07", "zip_code": "07430", "name": "Colombier-le-Cardinal"}},{"type": "Feature", "geometry": {"type": "Point", "coordinates": [4.7166049112426105,45.01179000000003]}, "properties": {"id": 63, "department_code": "07", "zip_code": "07270", "name": "Colombier-le-Jeune"}},{"type": "Feature", "geometry": {"type": "Point", "coordinates": [4.70529219653179,45.06280196531794]}, "properties": {"id": 64, "department_code": "07", "zip_code": "07410", "name": "Colombier-le-Vieux"}},{"type": "Feature", "geometry": {"type": "Point", "coordinates": [4.8349295,44.9639726]}, "properties": {"id": 65, "department_code": "07", "zip_code": "07130", "name": "Cornas"}},{"type": "Feature", "geometry": {"type": "Point", "coordinates": [3.95939470588235,44.79079239215685]}, "properties": {"id": 66, "department_code": "07", "zip_code": "07470", "name": "Coucouron"}},{"type": "Feature", "geometry": {"type": "Point", "coordinates": [4.6205654945055,44.7432401098901]}, "properties": {"id": 67, "department_code": "07", "zip_code": "07000", "name": "Coux"}},{"type": "Feature", "geometry": {"type": "Point", "coordinates": [4.63358323529412,45.00922088235296]}, "properties": {"id": 68, "department_code": "07", "zip_code": "07270", "name": "Le Crestet"}},{"type": "Feature", "geometry": {"type": "Point", "coordinates": [4.53078946969697,44.76097560606059]}, "properties": {"id": 69, "department_code": "07", "zip_code": "07000", "name": "Creysseilles"}},{"type": "Feature", "geometry": {"type": "Point", "coordinates": [4.125233,44.793443]}, "properties": {"id": 70, "department_code": "07", "zip_code": "07510", "name": "Cros-de-Géorand"}},{"type": "Feature", "geometry": {"type": "Point", "coordinates": [4.1206748,44.8605226]}, "properties": {"id": 71, "department_code": "07", "zip_code": "07630", "name": "Cros-de-Géorand"}},{"type": "Feature", "geometry": {"type": "Point", "coordinates": [4.75357666666667,44.66134196969698]}, "properties": {"id": 72, "department_code": "07", "zip_code": "07350", "name": "Cruas"}},{"type": "Feature", "geometry": {"type": "Point", "coordinates": [4.51604607329843,44.65737204188479]}, "properties": {"id": 73, "department_code": "07", "zip_code": "07170", "name": "Darbres"}},{"type": "Feature", "geometry": {"type": "Point", "coordinates": [4.69237084337349,45.25269084337351]}, "properties": {"id": 74, "department_code": "07", "zip_code": "07430", "name": "Davézieux"}},{"type": "Feature", "geometry": {"type": "Point", "coordinates": [4.50139808080808,44.9968530976431]}, "properties": {"id": 75, "department_code": "07", "zip_code": "07570", "name": "Désaignes"}},{"type": "Feature", "geometry": {"type": "Point", "coordinates": [4.39704387351779,45.06878790513838]}, "properties": {"id": 76, "department_code": "07", "zip_code": "07320", "name": "Devesset"}},{"type": "Feature", "geometry": {"type": "Point", "coordinates": [4.11003374100719,44.55845122302158]}, "properties": {"id": 77, "department_code": "07", "zip_code": "07260", "name": "Dompnac"}},{"type": "Feature", "geometry": {"type": "Point", "coordinates": [4.35718536423841,44.85382311258277]}, "properties": {"id": 78, "department_code": "07", "zip_code": "07160", "name": "Dornas"}},{"type": "Feature", "geometry": {"type": "Point", "coordinates": [4.6487085401459805,44.8348497810219]}, "properties": {"id": 79, "department_code": "07", "zip_code": "07360", "name": "Dunière-sur-Eyrieux"}},{"type": "Feature", "geometry": {"type": "Point", "coordinates": [4.74756994444444,45.15727116666666]}, "properties": {"id": 80, "department_code": "07", "zip_code": "07370", "name": "Eclassan"}},{"type": "Feature", "geometry": {"type": "Point", "coordinates": [4.59714078787879,45.02730581818184]}, "properties": {"id": 81, "department_code": "07", "zip_code": "07270", "name": "Empurany"}},{"type": "Feature", "geometry": {"type": "Point", "coordinates": [4.73822696629213,45.09199764044945]}, "properties": {"id": 82, "department_code": "07", "zip_code": "07300", "name": "Étables"}},{"type": "Feature", "geometry": {"type": "Point", "coordinates": [4.28227958677686,44.64836090909089]}, "properties": {"id": 83, "department_code": "07", "zip_code": "07380", "name": "Fabras"}},{"type": "Feature", "geometry": {"type": "Point", "coordinates": [4.13832157024793,44.48021024793389]}, "properties": {"id": 84, "department_code": "07", "zip_code": "07230", "name": "Faugères"}},{"type": "Feature", "geometry": {"type": "Point", "coordinates": [4.72870937007874,45.31966157480317]}, "properties": {"id": 85, "department_code": "07", "zip_code": "07340", "name": "Félines"}},{"type": "Feature", "geometry": {"type": "Point", "coordinates": [4.65922319444444,44.75264791666666]}, "properties": {"id": 86, "department_code": "07", "zip_code": "07000", "name": "Flaviac"}},{"type": "Feature", "geometry": {"type": "Point", "coordinates": [4.3546097260274,44.58138698630138]}, "properties": {"id": 87, "department_code": "07", "zip_code": "07200", "name": "Fons"}},{"type": "Feature", "geometry": {"type": "Point", "coordinates": [4.54996617021277,44.69126617021277]}, "properties": {"id": 88, "department_code": "07", "zip_code": "07000", "name": "Freyssenet"}},{"type": "Feature", "geometry": {"type": "Point", "coordinates": [4.38492063197026,44.73305728624534]}, "properties": {"id": 89, "department_code": "07", "zip_code": "07530", "name": "Genestelle"}},{"type": "Feature", "geometry": {"type": "Point", "coordinates": [4.74292279816514,44.86177220183488]}, "properties": {"id": 90, "department_code": "07", "zip_code": "07800", "name": "Gilhac-et-Bruzac"}},{"type": "Feature", "geometry": {"type": "Point", "coordinates": [4.67744333333333,44.98652427777776]}, "properties": {"id": 91, "department_code": "07", "zip_code": "07270", "name": "Gilhoc-sur-Ormèze"}},{"type": "Feature", "geometry": {"type": "Point", "coordinates": [4.52309815047022,44.84716354231975]}, "properties": {"id": 92, "department_code": "07", "zip_code": "07190", "name": "Gluiras"}},{"type": "Feature", "geometry": {"type": "Point", "coordinates": [4.82145875,45.00518818181819]}, "properties": {"id": 93, "department_code": "07", "zip_code": "07300", "name": "Glun"}},{"type": "Feature", "geometry": {"type": "Point", "coordinates": [4.45313353293413,44.72629874251498]}, "properties": {"id": 94, "department_code": "07", "zip_code": "07000", "name": "Gourdon"}},{"type": "Feature", "geometry": {"type": "Point", "coordinates": [4.53841475903615,44.43951451807229]}, "properties": {"id": 95, "department_code": "07", "zip_code": "07700", "name": "Gras"}},{"type": "Feature", "geometry": {"type": "Point", "coordinates": [4.073372,44.42190652941178]}, "properties": {"id": 96, "department_code": "07", "zip_code": "07140", "name": "Gravières"}},{"type": "Feature", "geometry": {"type": "Point", "coordinates": [4.28020522222222,44.39563700000001]}, "properties": {"id": 97, "department_code": "07", "zip_code": "07120", "name": "Grospierres"}},{"type": "Feature", "geometry": {"type": "Point", "coordinates": [4.85984485714286,44.93222514285715]}, "properties": {"id": 98, "department_code": "07", "zip_code": "07500", "name": "Guilherand-Granges"}},{"type": "Feature", "geometry": {"type": "Point", "coordinates": [4.362598,44.9827269]}, "properties": {"id": 99, "department_code": "07", "zip_code": "07310", "name": "Intres"}},{"type": "Feature", "geometry": {"type": "Point", "coordinates": [4.362598,44.9827269]}, "properties": {"id": 100, "department_code": "07", "zip_code": "07320", "name": "Intres"}},{"type": "Feature", "geometry": {"type": "Point", "coordinates": [4.45457042780749,44.78719802139037]}, "properties": {"id": 101, "department_code": "07", "zip_code": "07190", "name": "Issamoulenc"}},{"type": "Feature", "geometry": {"type": "Point", "coordinates": [4.012147,44.765754]}, "properties": {"id": 102, "department_code": "07", "zip_code": "07510", "name": "Issanlas"}},{"type": "Feature", "geometry": {"type": "Point", "coordinates": [4.012147,44.765754]}, "properties": {"id": 103, "department_code": "07", "zip_code": "07660", "name": "Issanlas"}},{"type": "Feature", "geometry": {"type": "Point", "coordinates": [4.05359174129353,44.85232875621895]}, "properties": {"id": 104, "department_code": "07", "zip_code": "07470", "name": "Issarlès"}},{"type": "Feature", "geometry": {"type": "Point", "coordinates": [4.23987017699115,44.63100734513274]}, "properties": {"id": 105, "department_code": "07", "zip_code": "07380", "name": "Jaujac"}},{"type": "Feature", "geometry": {"type": "Point", "coordinates": [4.39644573333333,44.92040239999999]}, "properties": {"id": 106, "department_code": "07", "zip_code": "07160", "name": "Jaunac"}},{"type": "Feature", "geometry": {"type": "Point", "coordinates": [4.25307995192308,44.57144581730771]}, "properties": {"id": 107, "department_code": "07", "zip_code": "07110", "name": "Joannas"}},{"type": "Feature", "geometry": {"type": "Point", "coordinates": [4.24372533333333,44.47343822222221]}, "properties": {"id": 108, "department_code": "07", "zip_code": "07260", "name": "Joyeuse"}},{"type": "Feature", "geometry": {"type": "Point", "coordinates": [4.3068657480315,44.7033168503937]}, "properties": {"id": 109, "department_code": "07", "zip_code": "07600", "name": "Juvinas"}},{"type": "Feature", "geometry": {"type": "Point", "coordinates": [4.30099403100775,44.74545906976746]}, "properties": {"id": 110, "department_code": "07", "zip_code": "07600", "name": "Labastide-sur-Bésorgues"}},{"type": "Feature", "geometry": {"type": "Point", "coordinates": [4.42029031746032,44.3606258730159]}, "properties": {"id": 111, "department_code": "07", "zip_code": "07150", "name": "Labastide-de-Virac"}},{"type": "Feature", "geometry": {"type": "Point", "coordinates": [4.49341375,45.03263216666667]}, "properties": {"id": 112, "department_code": "07", "zip_code": "07570", "name": "Labatie-d'Andaure"}},{"type": "Feature", "geometry": {"type": "Point", "coordinates": [4.31283762962963,44.46527007407408]}, "properties": {"id": 113, "department_code": "07", "zip_code": "07120", "name": "Labeaume"}},{"type": "Feature", "geometry": {"type": "Point", "coordinates": [4.36030708333333,44.63996770833333]}, "properties": {"id": 114, "department_code": "07", "zip_code": "07200", "name": "Labégude"}},{"type": "Feature", "geometry": {"type": "Point", "coordinates": [4.20880808080808,44.46207868686871]}, "properties": {"id": 115, "department_code": "07", "zip_code": "07230", "name": "Lablachère"}},{"type": "Feature", "geometry": {"type": "Point", "coordinates": [4.17399671641791,44.59199074626869]}, "properties": {"id": 116, "department_code": "07", "zip_code": "07110", "name": "Laboule"}},{"type": "Feature", "geometry": {"type": "Point", "coordinates": [4.07424882352941,44.82589952941178]}, "properties": {"id": 117, "department_code": "07", "zip_code": "07470", "name": "Le Lac-d'Issarlès"}},{"type": "Feature", "geometry": {"type": "Point", "coordinates": [4.28445179104478,44.8011373880597]}, "properties": {"id": 118, "department_code": "07", "zip_code": "07530", "name": "Lachamp-Raphaël"}},{"type": "Feature", "geometry": {"type": "Point", "coordinates": [4.01573324929972,44.81214977591039]}, "properties": {"id": 119, "department_code": "07", "zip_code": "07470", "name": "Lachapelle-Graillouse"}},{"type": "Feature", "geometry": {"type": "Point", "coordinates": [4.35445427272727,44.56525027272726]}, "properties": {"id": 120, "department_code": "07", "zip_code": "07200", "name": "Lachapelle-sous-Aubenas"}},{"type": "Feature", "geometry": {"type": "Point", "coordinates": [4.31756036036036,44.95279684684684]}, "properties": {"id": 121, "department_code": "07", "zip_code": "07310", "name": "Lachapelle-sous-Chanéac"}},{"type": "Feature", "geometry": {"type": "Point", "coordinates": [4.51161030769231,45.07544299999999]}, "properties": {"id": 122, "department_code": "07", "zip_code": "07520", "name": "Lafarre"}},{"type": "Feature", "geometry": {"type": "Point", "coordinates": [4.42713783783784,44.44129632432432]}, "properties": {"id": 123, "department_code": "07", "zip_code": "07150", "name": "Lagorce"}},{"type": "Feature", "geometry": {"type": "Point", "coordinates": [4.3124876744186,44.65216186046511]}, "properties": {"id": 124, "department_code": "07", "zip_code": "07380", "name": "Lalevade-d'Ardèche"}},{"type": "Feature", "geometry": {"type": "Point", "coordinates": [4.52121634920635,45.11394873015874]}, "properties": {"id": 125, "department_code": "07", "zip_code": "07520", "name": "Lalouvesc"}},{"type": "Feature", "geometry": {"type": "Point", "coordinates": [4.5942376156583595,44.983244341637]}, "properties": {"id": 126, "department_code": "07", "zip_code": "07270", "name": "Lamastre"}},{"type": "Feature", "geometry": {"type": "Point", "coordinates": [3.9954910952380898,44.72136485714283]}, "properties": {"id": 127, "department_code": "07", "zip_code": "07660", "name": "Lanarce"}},{"type": "Feature", "geometry": {"type": "Point", "coordinates": [4.38736510204082,44.53343897959185]}, "properties": {"id": 128, "department_code": "07", "zip_code": "07200", "name": "Lanas"}},{"type": "Feature", "geometry": {"type": "Point", "coordinates": [4.299646015625,44.5354665625]}, "properties": {"id": 129, "department_code": "07", "zip_code": "07110", "name": "Largentière"}},{"type": "Feature", "geometry": {"type": "Point", "coordinates": [4.59731063636364,44.45466918181817]}, "properties": {"id": 130, "department_code": "07", "zip_code": "07220", "name": "Larnas"}},{"type": "Feature", "geometry": {"type": "Point", "coordinates": [4.28452733333333,44.50944770370371]}, "properties": {"id": 131, "department_code": "07", "zip_code": "07110", "name": "Laurac-en-Vivarais"}},{"type": "Feature", "geometry": {"type": "Point", "coordinates": [3.9752101369863,44.57496732876714]}, "properties": {"id": 132, "department_code": "07", "zip_code": "07590", "name": "Laval-d'Aurelle"}},{"type": "Feature", "geometry": {"type": "Point", "coordinates": [3.91498769911505,44.618500176991176]}, "properties": {"id": 133, "department_code": "07", "zip_code": "48250", "name": "Laveyrune"}},{"type": "Feature", "geometry": {"type": "Point", "coordinates": [3.95529375690608,44.74349187845304]}, "properties": {"id": 134, "department_code": "07", "zip_code": "07660", "name": "Lavillatte"}},{"type": "Feature", "geometry": {"type": "Point", "coordinates": [4.44633252631579,44.58534410526315]}, "properties": {"id": 135, "department_code": "07", "zip_code": "07170", "name": "Lavilledieu"}},{"type": "Feature", "geometry": {"type": "Point", "coordinates": [4.33645390909091,44.76061900000001]}, "properties": {"id": 136, "department_code": "07", "zip_code": "07530", "name": "Laviolle"}},{"type": "Feature", "geometry": {"type": "Point", "coordinates": [4.77758113744076,45.09400881516587]}, "properties": {"id": 137, "department_code": "07", "zip_code": "07610", "name": "Lemps"}},{"type": "Feature", "geometry": {"type": "Point", "coordinates": [4.30056612676056,44.60719887323943]}, "properties": {"id": 138, "department_code": "07", "zip_code": "07200", "name": "Lentillères"}},{"type": "Feature", "geometry": {"type": "Point", "coordinates": [3.88878084745763,44.73287296610167]}, "properties": {"id": 139, "department_code": "07", "zip_code": "07660", "name": "Lespéron"}},{"type": "Feature", "geometry": {"type": "Point", "coordinates": [4.74682629213483,45.35139112359553]}, "properties": {"id": 140, "department_code": "07", "zip_code": "07340", "name": "Limony"}},{"type": "Feature", "geometry": {"type": "Point", "coordinates": [4.05099058394161,44.58972408759122]}, "properties": {"id": 141, "department_code": "07", "zip_code": "07110", "name": "Loubaresse"}},{"type": "Feature", "geometry": {"type": "Point", "coordinates": [4.46382754385965,44.61979555555556]}, "properties": {"id": 142, "department_code": "07", "zip_code": "07170", "name": "Lussas"}},{"type": "Feature", "geometry": {"type": "Point", "coordinates": [4.59962037593985,44.75031932330828]}, "properties": {"id": 143, "department_code": "07", "zip_code": "07000", "name": "Lyas"}},{"type": "Feature", "geometry": {"type": "Point", "coordinates": [4.04910270072993,44.4700225547445]}, "properties": {"id": 144, "department_code": "07", "zip_code": "07140", "name": "Malarce-sur-la-Thines"}},{"type": "Feature", "geometry": {"type": "Point", "coordinates": [4.07085171875,44.34716734375002]}, "properties": {"id": 145, "department_code": "07", "zip_code": "07140", "name": "Malbosc"}},{"type": "Feature", "geometry": {"type": "Point", "coordinates": [4.38838012269939,44.8061529447853]}, "properties": {"id": 146, "department_code": "07", "zip_code": "07190", "name": "Marcols-les-Eaux"}},{"type": "Feature", "geometry": {"type": "Point", "coordinates": [4.35305233944954,44.8871699082569]}, "properties": {"id": 147, "department_code": "07", "zip_code": "07160", "name": "Mariac"}},{"type": "Feature", "geometry": {"type": "Point", "coordinates": [4.33408203252033,45.00759898373979]}, "properties": {"id": 148, "department_code": "07", "zip_code": "07320", "name": "Mars"}},{"type": "Feature", "geometry": {"type": "Point", "coordinates": [4.81850639175258,45.03089134020618]}, "properties": {"id": 149, "department_code": "07", "zip_code": "07300", "name": "Mauves"}},{"type": "Feature", "geometry": {"type": "Point", "coordinates": [4.1002685443038,44.66368246835442]}, "properties": {"id": 150, "department_code": "07", "zip_code": "07330", "name": "Mayres"}},{"type": "Feature", "geometry": {"type": "Point", "coordinates": [4.09026417021277,44.73177378723405]}, "properties": {"id": 151, "department_code": "07", "zip_code": "07510", "name": "Mazan-l'Abbaye"}},{"type": "Feature", "geometry": {"type": "Point", "coordinates": [4.3506830769230795,44.62808170940171]}, "properties": {"id": 152, "department_code": "07", "zip_code": "07200", "name": "Mercuer"}},{"type": "Feature", "geometry": {"type": "Point", "coordinates": [4.25839973856209,44.67906928104575]}, "properties": {"id": 153, "department_code": "07", "zip_code": "07380", "name": "Meyras"}},{"type": "Feature", "geometry": {"type": "Point", "coordinates": [4.69942068965517,44.61782120689656]}, "properties": {"id": 154, "department_code": "07", "zip_code": "07400", "name": "Meysse"}},{"type": "Feature", "geometry": {"type": "Point", "coordinates": [4.34885863414634,44.80703648780489]}, "properties": {"id": 155, "department_code": "07", "zip_code": "07530", "name": "Mézilhac"}},{"type": "Feature", "geometry": {"type": "Point", "coordinates": [4.50294877192983,44.60254241228072]}, "properties": {"id": 156, "department_code": "07", "zip_code": "07170", "name": "Mirabel"}},{"type": "Feature", "geometry": {"type": "Point", "coordinates": [4.505908125,45.2030109375]}, "properties": {"id": 157, "department_code": "07", "zip_code": "07690", "name": "Monestier"}},{"type": "Feature", "geometry": {"type": "Point", "coordinates": [4.19820553846154,44.71673517948719]}, "properties": {"id": 158, "department_code": "07", "zip_code": "07560", "name": "Montpezat-sous-Bauzon"}},{"type": "Feature", "geometry": {"type": "Point", "coordinates": [4.29444798611111,44.51595618055556]}, "properties": {"id": 159, "department_code": "07", "zip_code": "07110", "name": "Montréal"}},{"type": "Feature", "geometry": {"type": "Point", "coordinates": [4.00448604790419,44.52415982035929]}, "properties": {"id": 160, "department_code": "07", "zip_code": "07140", "name": "Montselgues"}},{"type": "Feature", "geometry": {"type": "Point", "coordinates": [4.47610545454545,44.92979465909091]}, "properties": {"id": 161, "department_code": "07", "zip_code": "07160", "name": "Nonières"}},{"type": "Feature", "geometry": {"type": "Point", "coordinates": [4.54366296296296,45.03616067901235]}, "properties": {"id": 162, "department_code": "07", "zip_code": "07270", "name": "Nozières"}},{"type": "Feature", "geometry": {"type": "Point", "coordinates": [4.619039,44.80841757142858]}, "properties": {"id": 163, "department_code": "07", "zip_code": "07360", "name": "Les Ollières-sur-Eyrieux"}},{"type": "Feature", "geometry": {"type": "Point", "coordinates": [4.42265465909091,44.29319420454546]}, "properties": {"id": 164, "department_code": "07", "zip_code": "07150", "name": "Orgnac-l'Aven"}},{"type": "Feature", "geometry": {"type": "Point", "coordinates": [4.79332928057554,45.16340489208633]}, "properties": {"id": 165, "department_code": "07", "zip_code": "07370", "name": "Ozon"}},{"type": "Feature", "geometry": {"type": "Point", "coordinates": [4.55497360465116,45.07460831395351]}, "properties": {"id": 166, "department_code": "07", "zip_code": "07410", "name": "Pailharès"}},{"type": "Feature", "geometry": {"type": "Point", "coordinates": [4.14796523076923,44.45545569230769]}, "properties": {"id": 167, "department_code": "07", "zip_code": "07230", "name": "Payzac"}},{"type": "Feature", "geometry": {"type": "Point", "coordinates": [4.7407987654321,45.28501209876544]}, "properties": {"id": 168, "department_code": "07", "zip_code": "07340", "name": "Peaugres"}},{"type": "Feature", "geometry": {"type": "Point", "coordinates": [4.25758192982456,44.77708228070176]}, "properties": {"id": 169, "department_code": "07", "zip_code": "07450", "name": "Péreyres"}},{"type": "Feature", "geometry": {"type": "Point", "coordinates": [4.77615629213483,45.29515786516853]}, "properties": {"id": 170, "department_code": "07", "zip_code": "07340", "name": "Peyraud"}},{"type": "Feature", "geometry": {"type": "Point", "coordinates": [3.945137421875,44.69416750000001]}, "properties": {"id": 171, "department_code": "07", "zip_code": "07590", "name": "Le Plagnal"}},{"type": "Feature", "geometry": {"type": "Point", "coordinates": [4.15931614678899,44.48623678899083]}, "properties": {"id": 172, "department_code": "07", "zip_code": "07230", "name": "Planzolles"}},{"type": "Feature", "geometry": {"type": "Point", "coordinates": [4.77683895424837,45.0162222222222]}, "properties": {"id": 173, "department_code": "07", "zip_code": "07300", "name": "Plats"}},{"type": "Feature", "geometry": {"type": "Point", "coordinates": [4.29529829545455,44.66618954545453]}, "properties": {"id": 174, "department_code": "07", "zip_code": "07380", "name": "Pont-de-Labeaume"}},{"type": "Feature", "geometry": {"type": "Point", "coordinates": [4.51181571428571,44.7412936904762]}, "properties": {"id": 175, "department_code": "07", "zip_code": "07000", "name": "Pourchères"}},{"type": "Feature", "geometry": {"type": "Point", "coordinates": [4.7463529113924,44.75150810126582]}, "properties": {"id": 176, "department_code": "07", "zip_code": "07250", "name": "Le Pouzin"}},{"type": "Feature", "geometry": {"type": "Point", "coordinates": [4.30785841121495,44.63383355140187]}, "properties": {"id": 177, "department_code": "07", "zip_code": "07380", "name": "Prades"}},{"type": "Feature", "geometry": {"type": "Point", "coordinates": [4.37694370786517,44.47192303370786]}, "properties": {"id": 178, "department_code": "07", "zip_code": "07120", "name": "Pradons"}},{"type": "Feature", "geometry": {"type": "Point", "coordinates": [4.57452122807018,44.78627754385966]}, "properties": {"id": 179, "department_code": "07", "zip_code": "07000", "name": "Pranles"}},{"type": "Feature", "geometry": {"type": "Point", "coordinates": [4.6544961718749995,45.13982374999999]}, "properties": {"id": 180, "department_code": "07", "zip_code": "07290", "name": "Préaux"}},{"type": "Feature", "geometry": {"type": "Point", "coordinates": [4.59073454022988,44.72443155172416]}, "properties": {"id": 181, "department_code": "07", "zip_code": "07000", "name": "Privas"}},{"type": "Feature", "geometry": {"type": "Point", "coordinates": [4.25626648648649,44.59494702702704]}, "properties": {"id": 182, "department_code": "07", "zip_code": "07110", "name": "Prunet"}},{"type": "Feature", "geometry": {"type": "Point", "coordinates": [4.70467066666667,45.19828133333332]}, "properties": {"id": 183, "department_code": "07", "zip_code": "07290", "name": "Quintenas"}},{"type": "Feature", "geometry": {"type": "Point", "coordinates": [4.19835209302326,44.50466011627906]}, "properties": {"id": 184, "department_code": "07", "zip_code": "07260", "name": "Ribes"}},{"type": "Feature", "geometry": {"type": "Point", "coordinates": [4.45167773006135,44.52175674846625]}, "properties": {"id": 185, "department_code": "07", "zip_code": "07200", "name": "Rochecolombe"}},{"type": "Feature", "geometry": {"type": "Point", "coordinates": [4.69134743055556,44.59023569444446]}, "properties": {"id": 186, "department_code": "07", "zip_code": "07400", "name": "Rochemaure"}},{"type": "Feature", "geometry": {"type": "Point", "coordinates": [4.46540448275862,45.08671957854406]}, "properties": {"id": 187, "department_code": "07", "zip_code": "07320", "name": "Rochepaule"}},{"type": "Feature", "geometry": {"type": "Point", "coordinates": [4.27746304878049,44.57905560975609]}, "properties": {"id": 188, "department_code": "07", "zip_code": "07110", "name": "Rocher"}},{"type": "Feature", "geometry": {"type": "Point", "coordinates": [4.61187827338129,44.68263151079135]}, "properties": {"id": 189, "department_code": "07", "zip_code": "07210", "name": "Rochessauve"}},{"type": "Feature", "geometry": {"type": "Point", "coordinates": [4.23780443478261,44.92327191304349]}, "properties": {"id": 190, "department_code": "07", "zip_code": "07310", "name": "La Rochette"}},{"type": "Feature", "geometry": {"type": "Point", "coordinates": [4.20741760416667,44.56823333333332]}, "properties": {"id": 191, "department_code": "07", "zip_code": "07110", "name": "Rocles"}},{"type": "Feature", "geometry": {"type": "Point", "coordinates": [4.65842307291667,45.22408395833335]}, "properties": {"id": 192, "department_code": "07", "zip_code": "07100", "name": "Roiffieux"}},{"type": "Feature", "geometry": {"type": "Point", "coordinates": [4.7174062,44.7813992]}, "properties": {"id": 193, "department_code": "07", "zip_code": "07250", "name": "Rompon"}},{"type": "Feature", "geometry": {"type": "Point", "coordinates": [4.7174062,44.7813992]}, "properties": {"id": 194, "department_code": "07", "zip_code": "07800", "name": "Rompon"}},{"type": "Feature", "geometry": {"type": "Point", "coordinates": [4.26046729032258,44.49496058064519]}, "properties": {"id": 195, "department_code": "07", "zip_code": "07260", "name": "Rosières"}},{"type": "Feature", "geometry": {"type": "Point", "coordinates": [4.14372037593985,44.72440571428569]}, "properties": {"id": 196, "department_code": "07", "zip_code": "07560", "name": "Le Roux"}},{"type": "Feature", "geometry": {"type": "Point", "coordinates": [4.35435238095238,44.44928492063493]}, "properties": {"id": 197, "department_code": "07", "zip_code": "07120", "name": "Ruoms"}},{"type": "Feature", "geometry": {"type": "Point", "coordinates": [4.06845198412698,44.54389309523813]}, "properties": {"id": 198, "department_code": "07", "zip_code": "07260", "name": "Sablières"}},{"type": "Feature", "geometry": {"type": "Point", "coordinates": [4.21566147435898,44.80222788461539]}, "properties": {"id": 199, "department_code": "07", "zip_code": "07450", "name": "Sagnes-et-Goudoulet"}},{"type": "Feature", "geometry": {"type": "Point", "coordinates": [4.4105217630854,44.99939283746557]}, "properties": {"id": 200, "department_code": "07", "zip_code": "07320", "name": "Saint-Agrève"}},{"type": "Feature", "geometry": {"type": "Point", "coordinates": [4.63142847826087,45.18362173913044]}, "properties": {"id": 201, "department_code": "07", "zip_code": "07790", "name": "Saint-Alban-d'Ay"}},{"type": "Feature", "geometry": {"type": "Point", "coordinates": [3.917765,44.70809061797753]}, "properties": {"id": 202, "department_code": "07", "zip_code": "07590", "name": "Saint-Alban-en-Montagne"}},{"type": "Feature", "geometry": {"type": "Point", "coordinates": [4.29143917241379,44.43512827586208]}, "properties": {"id": 203, "department_code": "07", "zip_code": "07120", "name": "Saint-Alban-Auriolles"}},{"type": "Feature", "geometry": {"type": "Point", "coordinates": [4.53591377483444,44.53125887417214]}, "properties": {"id": 204, "department_code": "07", "zip_code": "07170", "name": "Saint-Andéol-de-Berg"}},{"type": "Feature", "geometry": {"type": "Point", "coordinates": [4.29001781690141,44.84465457746484]}, "properties": {"id": 205, "department_code": "07", "zip_code": "07160", "name": "Saint-Andéol-de-Fourchades"}},{"type": "Feature", "geometry": {"type": "Point", "coordinates": [4.40665124542125,44.69633025641023]}, "properties": {"id": 206, "department_code": "07", "zip_code": "07600", "name": "Saint-Andéol-de-Vals"}},{"type": "Feature", "geometry": {"type": "Point", "coordinates": [4.20725881889764,44.32268173228347]}, "properties": {"id": 207, "department_code": "07", "zip_code": "07460", "name": "Saint-André-de-Cruzières"}},{"type": "Feature", "geometry": {"type": "Point", "coordinates": [4.4145272761194,45.11493339552237]}, "properties": {"id": 208, "department_code": "07", "zip_code": "07690", "name": "Saint-André-en-Vivarais"}},{"type": "Feature", "geometry": {"type": "Point", "coordinates": [4.15401526570048,44.50799710144928]}, "properties": {"id": 209, "department_code": "07", "zip_code": "07230", "name": "Saint-André-Lachamp"}},{"type": "Feature", "geometry": {"type": "Point", "coordinates": [4.59107173913043,44.91880813664596]}, "properties": {"id": 210, "department_code": "07", "zip_code": "07240", "name": "Saint-Apollinaire-de-Rias"}},{"type": "Feature", "geometry": {"type": "Point", "coordinates": [4.47954434108527,44.88286031007753]}, "properties": {"id": 211, "department_code": "07", "zip_code": "07160", "name": "Saint-Barthélemy-le-Meil"}},{"type": "Feature", "geometry": {"type": "Point", "coordinates": [4.65255402116402,44.95976661375664]}, "properties": {"id": 212, "department_code": "07", "zip_code": "07270", "name": "Saint-Barthélemy-Grozon"}},{"type": "Feature", "geometry": {"type": "Point", "coordinates": [4.74985759803922,45.04827338235292]}, "properties": {"id": 213, "department_code": "07", "zip_code": "07300", "name": "Saint-Barthélemy-le-Plain"}},{"type": "Feature", "geometry": {"type": "Point", "coordinates": [4.56097707142857,44.94955021428571]}, "properties": {"id": 214, "department_code": "07", "zip_code": "07270", "name": "Saint-Basile"}},{"type": "Feature", "geometry": {"type": "Point", "coordinates": [4.66263415841584,44.67277871287128]}, "properties": {"id": 215, "department_code": "07", "zip_code": "07210", "name": "Saint-Bauzile"}},{"type": "Feature", "geometry": {"type": "Point", "coordinates": [4.44455610389611,44.86894675324674]}, "properties": {"id": 216, "department_code": "07", "zip_code": "07160", "name": "Saint-Christol"}},{"type": "Feature", "geometry": {"type": "Point", "coordinates": [4.67330808510638,44.7919579787234]}, "properties": {"id": 217, "department_code": "07", "zip_code": "07800", "name": "Saint-Cierge-la-Serre"}},{"type": "Feature", "geometry": {"type": "Point", "coordinates": [4.45160037383178,44.92598859813086]}, "properties": {"id": 218, "department_code": "07", "zip_code": "07160", "name": "Saint-Cierge-sous-le-Cheylard"}},{"type": "Feature", "geometry": {"type": "Point", "coordinates": [4.27586391891892,44.62205662162162]}, "properties": {"id": 219, "department_code": "07", "zip_code": "07380", "name": "Saint-Cirgues-de-Prades"}},{"type": "Feature", "geometry": {"type": "Point", "coordinates": [4.08905271111111,44.77002546666667]}, "properties": {"id": 220, "department_code": "07", "zip_code": "07510", "name": "Saint-Cirgues-en-Montagne"}},{"type": "Feature", "geometry": {"type": "Point", "coordinates": [4.68327873239437,45.27805507042254]}, "properties": {"id": 221, "department_code": "07", "zip_code": "07430", "name": "Saint-Clair"}},{"type": "Feature", "geometry": {"type": "Point", "coordinates": [4.26430045977011,44.94809281609196]}, "properties": {"id": 222, "department_code": "07", "zip_code": "07310", "name": "Saint-Clément"}},{"type": "Feature", "geometry": {"type": "Point", "coordinates": [4.73826508474576,45.25497474576272]}, "properties": {"id": 223, "department_code": "07", "zip_code": "07430", "name": "Saint-Cyr"}},{"type": "Feature", "geometry": {"type": "Point", "coordinates": [4.78444585365854,45.26065536585367]}, "properties": {"id": 224, "department_code": "07", "zip_code": "07340", "name": "Saint-Désirat"}},{"type": "Feature", "geometry": {"type": "Point", "coordinates": [4.42251841269841,44.60926047619045]}, "properties": {"id": 225, "department_code": "07", "zip_code": "07200", "name": "Saint-Didier-sous-Aubenas"}},{"type": "Feature", "geometry": {"type": "Point", "coordinates": [4.46949495575221,44.70152946902655]}, "properties": {"id": 226, "department_code": "07", "zip_code": "07200", "name": "Saint-Étienne-de-Boulogne"}},{"type": "Feature", "geometry": {"type": "Point", "coordinates": [4.37814035971223,44.59570086330937]}, "properties": {"id": 227, "department_code": "07", "zip_code": "07200", "name": "Saint-Étienne-de-Fontbellon"}},{"type": "Feature", "geometry": {"type": "Point", "coordinates": [3.97160697560975,44.6450058536585]}, "properties": {"id": 228, "department_code": "07", "zip_code": "07590", "name": "Saint-Étienne-de-Lugdarès"}},{"type": "Feature", "geometry": {"type": "Point", "coordinates": [4.52319963855422,44.80367807228918]}, "properties": {"id": 229, "department_code": "07", "zip_code": "07190", "name": "Saint-Étienne-de-Serre"}},{"type": "Feature", "geometry": {"type": "Point", "coordinates": [4.7804715625,45.243118125]}, "properties": {"id": 230, "department_code": "07", "zip_code": "07340", "name": "Saint-Étienne-de-Valoux"}},{"type": "Feature", "geometry": {"type": "Point", "coordinates": [4.18399535714286,44.82356148809523]}, "properties": {"id": 231, "department_code": "07", "zip_code": "07510", "name": "Sainte-Eulalie"}},{"type": "Feature", "geometry": {"type": "Point", "coordinates": [4.60726385,45.0745454]}, "properties": {"id": 232, "department_code": "07", "zip_code": "07410", "name": "Saint-Félicien"}},{"type": "Feature", "geometry": {"type": "Point", "coordinates": [4.68440007092199,44.83175581560284]}, "properties": {"id": 233, "department_code": "07", "zip_code": "07360", "name": "Saint-Fortunat-sur-Eyrieux"}},{"type": "Feature", "geometry": {"type": "Point", "coordinates": [4.18928033613445,44.44441067226892]}, "properties": {"id": 234, "department_code": "07", "zip_code": "07230", "name": "Saint-Genest-de-Beauzon"}},{"type": "Feature", "geometry": {"type": "Point", "coordinates": [4.422978,44.846943]}, "properties": {"id": 235, "department_code": "07", "zip_code": "07160", "name": "Saint-Genest-Lachamp"}},{"type": "Feature", "geometry": {"type": "Point", "coordinates": [4.422978,44.846943]}, "properties": {"id": 236, "department_code": "07", "zip_code": "07190", "name": "Saint-Genest-Lachamp"}},{"type": "Feature", "geometry": {"type": "Point", "coordinates": [4.80476318681318,44.86066274725276]}, "properties": {"id": 237, "department_code": "07", "zip_code": "07800", "name": "Saint-Georges-les-Bains"}},{"type": "Feature", "geometry": {"type": "Point", "coordinates": [4.45072932773109,44.55322983193281]}, "properties": {"id": 238, "department_code": "07", "zip_code": "07170", "name": "Saint-Germain"}},{"type": "Feature", "geometry": {"type": "Point", "coordinates": [4.53686868020305,44.63411989847716]}, "properties": {"id": 239, "department_code": "07", "zip_code": "07580", "name": "Saint-Gineis-en-Coiron"}},{"type": "Feature", "geometry": {"type": "Point", "coordinates": [4.66890455445545,45.33580653465347]}, "properties": {"id": 240, "department_code": "07", "zip_code": "07340", "name": "Saint-Jacques-d'Atticieux"}},{"type": "Feature", "geometry": {"type": "Point", "coordinates": [4.55779489361702,44.90967411347515]}, "properties": {"id": 241, "department_code": "07", "zip_code": "07240", "name": "Saint-Jean-Chambre"}},{"type": "Feature", "geometry": {"type": "Point", "coordinates": [4.7941393457944,45.0766908411215]}, "properties": {"id": 242, "department_code": "07", "zip_code": "07300", "name": "Saint-Jean-de-Muzols"}},{"type": "Feature", "geometry": {"type": "Point", "coordinates": [4.53833493617021,44.58690957446808]}, "properties": {"id": 243, "department_code": "07", "zip_code": "07580", "name": "Saint-Jean-le-Centenier"}},{"type": "Feature", "geometry": {"type": "Point", "coordinates": [4.4164585606060704,44.9539446969697]}, "properties": {"id": 244, "department_code": "07", "zip_code": "07160", "name": "Saint-Jean-Roure"}},{"type": "Feature", "geometry": {"type": "Point", "coordinates": [4.46526253012048,45.0496526506024]}, "properties": {"id": 245, "department_code": "07", "zip_code": "07320", "name": "Saint-Jeure-d'Andaure"}},{"type": "Feature", "geometry": {"type": "Point", "coordinates": [4.71104956989247,45.14511623655913]}, "properties": {"id": 246, "department_code": "07", "zip_code": "07290", "name": "Saint-Jeure-d'Ay"}},{"type": "Feature", "geometry": {"type": "Point", "coordinates": [4.40984430463576,44.74926523178809]}, "properties": {"id": 247, "department_code": "07", "zip_code": "07530", "name": "Saint-Joseph-des-Bancs"}},{"type": "Feature", "geometry": {"type": "Point", "coordinates": [4.33918451923077,44.97055]}, "properties": {"id": 248, "department_code": "07", "zip_code": "07310", "name": "Saint-Julien-Boutières"}},{"type": "Feature", "geometry": {"type": "Point", "coordinates": [4.45124461111111,44.77074672222221]}, "properties": {"id": 249, "department_code": "07", "zip_code": "07190", "name": "Saint-Julien-du-Gua"}},{"type": "Feature", "geometry": {"type": "Point", "coordinates": [4.40248794871795,44.6617876923077]}, "properties": {"id": 250, "department_code": "07", "zip_code": "07200", "name": "Saint-Julien-du-Serre"}},{"type": "Feature", "geometry": {"type": "Point", "coordinates": [4.69309820512821,44.75681292307693]}, "properties": {"id": 251, "department_code": "07", "zip_code": "07000", "name": "Saint-Julien-en-Saint-Alban"}},{"type": "Feature", "geometry": {"type": "Point", "coordinates": [4.51527385026738,44.90522347593583]}, "properties": {"id": 252, "department_code": "07", "zip_code": "07160", "name": "Saint-Julien-Labrousse"}},{"type": "Feature", "geometry": {"type": "Point", "coordinates": [4.6732395,44.868053]}, "properties": {"id": 253, "department_code": "07", "zip_code": "07240", "name": "Saint-Julien-le-Roux"}},{"type": "Feature", "geometry": {"type": "Point", "coordinates": [4.4889219047619004,45.16653876190475]}, "properties": {"id": 254, "department_code": "07", "zip_code": "07690", "name": "Saint-Julien-Vocance"}},{"type": "Feature", "geometry": {"type": "Point", "coordinates": [4.61983441176471,44.29572549019607]}, "properties": {"id": 255, "department_code": "07", "zip_code": "07700", "name": "Saint-Just-d'Ardèche"}},{"type": "Feature", "geometry": {"type": "Point", "coordinates": [4.72042645390071,44.69108446808511]}, "properties": {"id": 256, "department_code": "07", "zip_code": "07210", "name": "Saint-Lager-Bressac"}},{"type": "Feature", "geometry": {"type": "Point", "coordinates": [4.74246647435898,44.82431615384616]}, "properties": {"id": 257, "department_code": "07", "zip_code": "07800", "name": "Saint-Laurent-du-Pape"}},{"type": "Feature", "geometry": {"type": "Point", "coordinates": [3.9678990438247,44.59334023904383]}, "properties": {"id": 258, "department_code": "07", "zip_code": "07590", "name": "Saint-Laurent-les-Bains"}},{"type": "Feature", "geometry": {"type": "Point", "coordinates": [4.48871888235294,44.66640229411765]}, "properties": {"id": 259, "department_code": "07", "zip_code": "07170", "name": "Saint-Laurent-sous-Coiron"}},{"type": "Feature", "geometry": {"type": "Point", "coordinates": [4.5971605581395405,44.32478683720932]}, "properties": {"id": 260, "department_code": "07", "zip_code": "07700", "name": "Saint-Marcel-d'Ardèche"}},{"type": "Feature", "geometry": {"type": "Point", "coordinates": [4.63296266666667,45.29249599999999]}, "properties": {"id": 261, "department_code": "07", "zip_code": "07100", "name": "Saint-Marcel-lès-Annonay"}},{"type": "Feature", "geometry": {"type": "Point", "coordinates": [3.99672508108108,44.48940345945948]}, "properties": {"id": 262, "department_code": "07", "zip_code": "07140", "name": "Sainte-Marguerite-Lafigère"}},{"type": "Feature", "geometry": {"type": "Point", "coordinates": [4.25552066390042,44.86060970954359]}, "properties": {"id": 263, "department_code": "07", "zip_code": "07310", "name": "Saint-Martial"}},{"type": "Feature", "geometry": {"type": "Point", "coordinates": [4.57357714285714,44.30853285714286]}, "properties": {"id": 264, "department_code": "07", "zip_code": "07700", "name": "Saint-Martin-d'Ardèche"}},{"type": "Feature", "geometry": {"type": "Point", "coordinates": [4.36537097701149,44.93549057471265]}, "properties": {"id": 265, "department_code": "07", "zip_code": "07310", "name": "Saint-Martin-de-Valamas"}},{"type": "Feature", "geometry": {"type": "Point", "coordinates": [4.65338021505376,44.64295193548387]}, "properties": {"id": 266, "department_code": "07", "zip_code": "07400", "name": "Saint-Martin-sur-Lavezon"}},{"type": "Feature", "geometry": {"type": "Point", "coordinates": [4.40814743589744,44.51518705128205]}, "properties": {"id": 267, "department_code": "07", "zip_code": "07200", "name": "Saint-Maurice-d'Ardèche"}},{"type": "Feature", "geometry": {"type": "Point", "coordinates": [4.48808779279279,44.48197900900902]}, "properties": {"id": 268, "department_code": "07", "zip_code": "07170", "name": "Saint-Maurice-d'Ibie"}},{"type": "Feature", "geometry": {"type": "Point", "coordinates": [4.5819411235955,44.85534707865168]}, "properties": {"id": 269, "department_code": "07", "zip_code": "07190", "name": "Saint-Maurice-en-Chalencon"}},{"type": "Feature", "geometry": {"type": "Point", "coordinates": [4.12660222929936,44.53682974522292]}, "properties": {"id": 270, "department_code": "07", "zip_code": "07260", "name": "Saint-Mélany"}},{"type": "Feature", "geometry": {"type": "Point", "coordinates": [4.45836405172414,44.89672896551723]}, "properties": {"id": 271, "department_code": "07", "zip_code": "07160", "name": "Saint-Michel-d'Aurance"}},{"type": "Feature", "geometry": {"type": "Point", "coordinates": [4.43361120805369,44.699284295302]}, "properties": {"id": 272, "department_code": "07", "zip_code": "07200", "name": "Saint-Michel-de-Boulogne"}},{"type": "Feature", "geometry": {"type": "Point", "coordinates": [4.61428438461538,44.83858307692308]}, "properties": {"id": 273, "department_code": "07", "zip_code": "07360", "name": "Saint-Michel-de-Chabrillanoux"}},{"type": "Feature", "geometry": {"type": "Point", "coordinates": [4.61283580838323,44.42990826347305]}, "properties": {"id": 274, "department_code": "07", "zip_code": "07220", "name": "Saint-Montan"}},{"type": "Feature", "geometry": {"type": "Point", "coordinates": [4.15796763513513,44.33336209459462]}, "properties": {"id": 275, "department_code": "07", "zip_code": "07460", "name": "Saint-Paul-le-Jeune"}},{"type": "Feature", "geometry": {"type": "Point", "coordinates": [4.82531068807339,44.93951403669722]}, "properties": {"id": 276, "department_code": "07", "zip_code": "07130", "name": "Saint-Péray"}},{"type": "Feature", "geometry": {"type": "Point", "coordinates": [4.26458985915493,44.70906302816903]}, "properties": {"id": 277, "department_code": "07", "zip_code": "07450", "name": "Saint-Pierre-de-Colombier"}},{"type": "Feature", "geometry": {"type": "Point", "coordinates": [4.62119895238095,44.65225723809523]}, "properties": {"id": 278, "department_code": "07", "zip_code": "07400", "name": "Saint-Pierre-la-Roche"}},{"type": "Feature", "geometry": {"type": "Point", "coordinates": [4.10471285123967,44.47846619834712]}, "properties": {"id": 279, "department_code": "07", "zip_code": "07140", "name": "Saint-Pierre-Saint-Jean"}},{"type": "Feature", "geometry": {"type": "Point", "coordinates": [4.48291366666667,45.12248638888888]}, "properties": {"id": 280, "department_code": "07", "zip_code": "07520", "name": "Saint-Pierre-sur-Doux"}},{"type": "Feature", "geometry": {"type": "Point", "coordinates": [4.48812722513089,44.82238136125658]}, "properties": {"id": 281, "department_code": "07", "zip_code": "07190", "name": "Saint-Pierreville"}},{"type": "Feature", "geometry": {"type": "Point", "coordinates": [4.57183661835749,44.60222256038649]}, "properties": {"id": 282, "department_code": "07", "zip_code": "07580", "name": "Saint-Pons"}},{"type": "Feature", "geometry": {"type": "Point", "coordinates": [4.54219159763314,44.71595775147929]}, "properties": {"id": 283, "department_code": "07", "zip_code": "07000", "name": "Saint-Priest"}},{"type": "Feature", "geometry": {"type": "Point", "coordinates": [4.42390277227723,44.62985712871286]}, "properties": {"id": 284, "department_code": "07", "zip_code": "07200", "name": "Saint-Privat"}},{"type": "Feature", "geometry": {"type": "Point", "coordinates": [4.50286801169591,44.94598690058478]}, "properties": {"id": 285, "department_code": "07", "zip_code": "07270", "name": "Saint-Prix"}},{"type": "Feature", "geometry": {"type": "Point", "coordinates": [4.49150798206278,44.37709452914797]}, "properties": {"id": 286, "department_code": "07", "zip_code": "07700", "name": "Saint-Remèze"}},{"type": "Feature", "geometry": {"type": "Point", "coordinates": [4.67693965217391,45.16256173913046]}, "properties": {"id": 287, "department_code": "07", "zip_code": "07290", "name": "Saint-Romain-d'Ay"}},{"type": "Feature", "geometry": {"type": "Point", "coordinates": [4.79776679012346,44.97732506172842]}, "properties": {"id": 288, "department_code": "07", "zip_code": "07130", "name": "Saint-Romain-de-Lerps"}},{"type": "Feature", "geometry": {"type": "Point", "coordinates": [4.25781519230769,44.29655326923075]}, "properties": {"id": 289, "department_code": "07", "zip_code": "07460", "name": "Saint-Sauveur-de-Cruzières"}},{"type": "Feature", "geometry": {"type": "Point", "coordinates": [4.57288803370786,44.8218041011236]}, "properties": {"id": 290, "department_code": "07", "zip_code": "07190", "name": "Saint-Sauveur-de-Montagut"}},{"type": "Feature", "geometry": {"type": "Point", "coordinates": [4.37800901639344,44.5781344262295]}, "properties": {"id": 291, "department_code": "07", "zip_code": "07200", "name": "Saint-Sernin"}},{"type": "Feature", "geometry": {"type": "Point", "coordinates": [4.7511175308641995,44.98620876543208]}, "properties": {"id": 292, "department_code": "07", "zip_code": "07440", "name": "Saint-Sylvestre"}},{"type": "Feature", "geometry": {"type": "Point", "coordinates": [4.70787564356436,44.72708504950494]}, "properties": {"id": 293, "department_code": "07", "zip_code": "07210", "name": "Saint-Symphorien-sous-Chomérac"}},{"type": "Feature", "geometry": {"type": "Point", "coordinates": [4.55647441441441,45.156470990991]}, "properties": {"id": 294, "department_code": "07", "zip_code": "07290", "name": "Saint-Symphorien-de-Mahun"}},{"type": "Feature", "geometry": {"type": "Point", "coordinates": [4.61876264900663,44.50541986754968]}, "properties": {"id": 295, "department_code": "07", "zip_code": "07220", "name": "Saint-Thomé"}},{"type": "Feature", "geometry": {"type": "Point", "coordinates": [4.6954025,45.09130690476191]}, "properties": {"id": 296, "department_code": "07", "zip_code": "07410", "name": "Saint-Victor"}},{"type": "Feature", "geometry": {"type": "Point", "coordinates": [4.70647638655462,44.66129621848739]}, "properties": {"id": 297, "department_code": "07", "zip_code": "07210", "name": "Saint-Vincent-de-Barrès"}},{"type": "Feature", "geometry": {"type": "Point", "coordinates": [4.63768034482759,44.79049844827583]}, "properties": {"id": 298, "department_code": "07", "zip_code": "07360", "name": "Saint-Vincent-de-Durfort"}},{"type": "Feature", "geometry": {"type": "Point", "coordinates": [4.36184107526882,44.3875311827957]}, "properties": {"id": 299, "department_code": "07", "zip_code": "07150", "name": "Salavas"}},{"type": "Feature", "geometry": {"type": "Point", "coordinates": [4.09978645833333,44.43886145833332]}, "properties": {"id": 300, "department_code": "07", "zip_code": "07140", "name": "Les Salelles"}},{"type": "Feature", "geometry": {"type": "Point", "coordinates": [4.3322956097561,44.41076024390244]}, "properties": {"id": 301, "department_code": "07", "zip_code": "07120", "name": "Sampzon"}},{"type": "Feature", "geometry": {"type": "Point", "coordinates": [4.23223775700935,44.53211191588786]}, "properties": {"id": 302, "department_code": "07", "zip_code": "07110", "name": "Sanilhac"}},{"type": "Feature", "geometry": {"type": "Point", "coordinates": [4.77877832167832,45.18664202797202]}, "properties": {"id": 303, "department_code": "07", "zip_code": "07370", "name": "Sarras"}},{"type": "Feature", "geometry": {"type": "Point", "coordinates": [4.58764880952381,45.14610114285713]}, "properties": {"id": 304, "department_code": "07", "zip_code": "07290", "name": "Satillieu"}},{"type": "Feature", "geometry": {"type": "Point", "coordinates": [4.66404138686132,45.30132160583942]}, "properties": {"id": 305, "department_code": "07", "zip_code": "07430", "name": "Savas"}},{"type": "Feature", "geometry": {"type": "Point", "coordinates": [4.59879125,44.6166697368421]}, "properties": {"id": 306, "department_code": "07", "zip_code": "07400", "name": "Sceautres"}},{"type": "Feature", "geometry": {"type": "Point", "coordinates": [4.77495280701754,45.12980421052632]}, "properties": {"id": 307, "department_code": "07", "zip_code": "07610", "name": "Sécheras"}},{"type": "Feature", "geometry": {"type": "Point", "coordinates": [4.75846051282051,45.31586564102566]}, "properties": {"id": 308, "department_code": "07", "zip_code": "07340", "name": "Serrières"}},{"type": "Feature", "geometry": {"type": "Point", "coordinates": [4.61650291666666,44.87364009259259]}, "properties": {"id": 309, "department_code": "07", "zip_code": "07240", "name": "Silhac"}},{"type": "Feature", "geometry": {"type": "Point", "coordinates": [4.17108273255814,44.62626883720931]}, "properties": {"id": 310, "department_code": "07", "zip_code": "07380", "name": "La Souche"}},{"type": "Feature", "geometry": {"type": "Point", "coordinates": [4.84951661538461,44.89536723076922]}, "properties": {"id": 311, "department_code": "07", "zip_code": "07130", "name": "Soyons"}},{"type": "Feature", "geometry": {"type": "Point", "coordinates": [4.77633984375,45.21581218750001]}, "properties": {"id": 312, "department_code": "07", "zip_code": "07340", "name": "Talencieux"}},{"type": "Feature", "geometry": {"type": "Point", "coordinates": [4.27105043956044,44.55194934065935]}, "properties": {"id": 313, "department_code": "07", "zip_code": "07110", "name": "Tauriers"}},{"type": "Feature", "geometry": {"type": "Point", "coordinates": [4.66068601190476,44.54713333333333]}, "properties": {"id": 314, "department_code": "07", "zip_code": "07400", "name": "Le Teil"}},{"type": "Feature", "geometry": {"type": "Point", "coordinates": [4.76062875,45.23372812500001]}, "properties": {"id": 315, "department_code": "07", "zip_code": "07340", "name": "Thorrenc"}},{"type": "Feature", "geometry": {"type": "Point", "coordinates": [4.20791544217687,44.67515911564623]}, "properties": {"id": 316, "department_code": "07", "zip_code": "07330", "name": "Thueyts"}},{"type": "Feature", "geometry": {"type": "Point", "coordinates": [4.78748028409091,44.90383232954545]}, "properties": {"id": 317, "department_code": "07", "zip_code": "07130", "name": "Toulaud"}},{"type": "Feature", "geometry": {"type": "Point", "coordinates": [4.80980860294118,45.0495985294118]}, "properties": {"id": 318, "department_code": "07", "zip_code": "07300", "name": "Tournon-sur-Rhône"}},{"type": "Feature", "geometry": {"type": "Point", "coordinates": [4.39037417721519,44.64038506329114]}, "properties": {"id": 319, "department_code": "07", "zip_code": "07200", "name": "Ucel"}},{"type": "Feature", "geometry": {"type": "Point", "coordinates": [4.16692143884892,44.77407323741004]}, "properties": {"id": 320, "department_code": "07", "zip_code": "07510", "name": "Usclades-et-Rieutord"}},{"type": "Feature", "geometry": {"type": "Point", "coordinates": [4.32664111111111,44.52002024691357]}, "properties": {"id": 321, "department_code": "07", "zip_code": "07110", "name": "Uzer"}},{"type": "Feature", "geometry": {"type": "Point", "coordinates": [4.34396735714286,44.35771342857142]}, "properties": {"id": 322, "department_code": "07", "zip_code": "07150", "name": "Vagnas"}},{"type": "Feature", "geometry": {"type": "Point", "coordinates": [4.11671677419355,44.58768491935485]}, "properties": {"id": 323, "department_code": "07", "zip_code": "07110", "name": "Valgorge"}},{"type": "Feature", "geometry": {"type": "Point", "coordinates": [4.40896869955157,44.40105686098658]}, "properties": {"id": 324, "department_code": "07", "zip_code": "07150", "name": "Vallon-Pont-d'Arc"}},{"type": "Feature", "geometry": {"type": "Point", "coordinates": [4.34485541984733,44.67097557251909]}, "properties": {"id": 325, "department_code": "07", "zip_code": "07600", "name": "Vals-les-Bains"}},{"type": "Feature", "geometry": {"type": "Point", "coordinates": [4.55793583732057,44.50644535885169]}, "properties": {"id": 326, "department_code": "07", "zip_code": "07400", "name": "Valvignères"}},{"type": "Feature", "geometry": {"type": "Point", "coordinates": [4.53745938888889,45.22649605555555]}, "properties": {"id": 327, "department_code": "07", "zip_code": "07690", "name": "Vanosc"}},{"type": "Feature", "geometry": {"type": "Point", "coordinates": [4.11765137313433,44.39292014925375]}, "properties": {"id": 328, "department_code": "07", "zip_code": "07140", "name": "Les Vans"}},{"type": "Feature", "geometry": {"type": "Point", "coordinates": [4.60701923076923,45.10653010989012]}, "properties": {"id": 329, "department_code": "07", "zip_code": "07410", "name": "Vaudevant"}},{"type": "Feature", "geometry": {"type": "Point", "coordinates": [4.22602473684211,44.50661]}, "properties": {"id": 330, "department_code": "07", "zip_code": "07260", "name": "Vernon"}},{"type": "Feature", "geometry": {"type": "Point", "coordinates": [4.71694848214286,45.21957169642859]}, "properties": {"id": 331, "department_code": "07", "zip_code": "07430", "name": "Vernosc-lès-Annonay"}},{"type": "Feature", "geometry": {"type": "Point", "coordinates": [4.64277098113207,44.90296562264152]}, "properties": {"id": 332, "department_code": "07", "zip_code": "07240", "name": "Vernoux-en-Vivarais"}},{"type": "Feature", "geometry": {"type": "Point", "coordinates": [4.4414466,44.65333045000003]}, "properties": {"id": 333, "department_code": "07", "zip_code": "07200", "name": "Vesseaux"}},{"type": "Feature", "geometry": {"type": "Point", "coordinates": [4.55830934782609,44.73268630434782]}, "properties": {"id": 334, "department_code": "07", "zip_code": "07000", "name": "Veyras"}},{"type": "Feature", "geometry": {"type": "Point", "coordinates": [4.51030901639344,44.55030094262298]}, "properties": {"id": 335, "department_code": "07", "zip_code": "07170", "name": "Villeneuve-de-Berg"}},{"type": "Feature", "geometry": {"type": "Point", "coordinates": [4.59569133333333,45.22578411111112]}, "properties": {"id": 336, "department_code": "07", "zip_code": "07690", "name": "Villevocance"}},{"type": "Feature", "geometry": {"type": "Point", "coordinates": [4.32951598484848,44.54766234848486]}, "properties": {"id": 337, "department_code": "07", "zip_code": "07110", "name": "Vinezac"}},{"type": "Feature", "geometry": {"type": "Point", "coordinates": [4.70294514285714,45.33034961904762]}, "properties": {"id": 338, "department_code": "07", "zip_code": "07340", "name": "Vinzieux"}},{"type": "Feature", "geometry": {"type": "Point", "coordinates": [4.79386357894737,45.1123152631579]}, "properties": {"id": 339, "department_code": "07", "zip_code": "07610", "name": "Vion"}},{"type": "Feature", "geometry": {"type": "Point", "coordinates": [4.66175109375,44.48603671874998]}, "properties": {"id": 340, "department_code": "07", "zip_code": "07220", "name": "Viviers"}},{"type": "Feature", "geometry": {"type": "Point", "coordinates": [4.56312776,45.19948072]}, "properties": {"id": 341, "department_code": "07", "zip_code": "07690", "name": "Vocance"}},{"type": "Feature", "geometry": {"type": "Point", "coordinates": [4.41391142857143,44.55305294117647]}, "properties": {"id": 342, "department_code": "07", "zip_code": "07200", "name": "Vogüé"}},{"type": "Feature", "geometry": {"type": "Point", "coordinates": [4.77820975,44.80111075000001]}, "properties": {"id": 343, "department_code": "07", "zip_code": "07800", "name": "La Voulte-sur-Rhône"}}
]}